#Name	Brake.Hyd.Sys.pMC	Car.Distance	Car.Fr1.rx	Car.Fr1.ry	Car.Fr1.rz	Car.Fr1.tx	Car.Fr1.ty	Car.Fr1.tz	Car.Gen.ax_1	Car.Gen.ay_1	Car.Gen.vx_1	Car.Pitch	Car.Roll	Car.SideSlipAngle	Car.Yaw	Car.YawRate	Car.ax	Car.ay	Car.tx	Car.ty	Car.v	Car.vFL	Car.vFR	Car.vRL	Car.vRR	DM.Brake	DM.Clutch	DM.Gas	DM.GearNo	DM.Long.StepDist	DM.ManNo	DM.Steer.Ang	DM.Steer.Trq	Driver.Brake	Driver.Gas	Driver.Steer.Ang	PT.Engine.rotv	PwrD.Tire.CambDeflFL	PwrD.Tire.CambDeflFR	PwrD.Tire.LatSlipFL	PwrD.Tire.LatSlipFR	PwrD.Tire.LongSlipFL	PwrD.Tire.LongSlipFR	PwrD.Tire.RollResistFL	PwrD.Tire.RollResistFR	PwrD.Tire.ToeSlipFL	PwrD.Tire.ToeSlipFR	PwrD.Tire.TotalFL	PwrD.Tire.TotalFR	PwrL.Aero	PwrL.Brake	PwrL.PT	PwrL.Tire	PwrL.Total	PwrS.Aero	PwrS.Brake	PwrS.PT	PwrS.Tire	PwrS.Total	Steer.WhlAng	Time	Vhcl.Fr1.x	Vhcl.Fr1.y	Vhcl.v
#Unit	bar	m	rad	rad	rad	m	m	m	m/s^2	m/s^2	m/s	rad	rad	rad	rad	rad/s	m/s^2	m/s^2	m	m	m/s	m/s	m/s	m/s	m/s	-	-	-	-	m	-	rad	Nm	-	-	rad	rad/s	W	W	W	W	W	W	W	W	W	W	W	W	W	W	W	W	W	W	W	W	W	W	rad	s	m	m	m/s
#nStates	0	0	0	0	0	0	0	0	0	0	0	0	0	0	0	0	0	0	0	0	0	0	0	0	0	0	0	0	0	0	0	0	0	0	0	0	0	0	0	0	0	0	0	0	0	0	0	0	0	0	0	0	0	0	0	0	0	0	0	0	0	0	0	0
	                 0	                 0	    -2.2811433e-08	     -0.0034166538	      -0.077848494	         -22.57574	        -2.1765654	      -0.041600611	       0.014649852	    -1.4401818e-08	                 0	     -0.0034166538	    -2.2811433e-08	                 0	      -0.077848494	    -4.3991614e-11	        0.01524827	    -1.4611789e-08	        -21.882265	        -2.2306607	                 0	             2e-06	             2e-06	             2e-06	             2e-06	                 0	                 0	                 0	                 0	                 0	               -99	                 0	                 0	                 0	                 0	                 0	                 0	                -0	                 0	                -0	                -0	     5.5349362e-09	     5.5349388e-09	     6.9279068e-12	     6.9279091e-12	                -0	                 0	     5.5418641e-09	     5.5418667e-09	                 0	     1.8753077e-24	        0.36451009	     5.4710776e-08	        0.36451015	                 0	                 0	        0.82016958	                 0	        0.82016958	                 0	                 0	         -22.57574	        -2.1765654	                 0
	                 0	       0.033379511	    -6.7987279e-07	     -0.0094991112	      -0.077844957	         -22.54145	        -2.1792424	      -0.050209553	          6.402081	    -8.3108129e-06	        0.46848206	     -0.0094991112	    -6.7987279e-07	                 0	      -0.077844957	    -1.7413277e-07	         6.3998682	    -1.4606543e-05	        -21.849549	        -2.2332122	        0.46894135	         7.8976047	         7.8978833	        0.48442673	         0.4844307	                 0	                 0	       0.051006591	                 0	       0.032910569	               -99	     -0.0003888413	     0.00050594704	                 0	       0.051006591	     -0.0003888413	                 0	                -0	                -0	      0.0032228119	      0.0034070535	         1173.8614	          1173.008	         92.893401	         92.824107	     2.9771512e-06	     2.9951233e-06	         1266.5463	         1265.6242	       0.061315459	         7.4945395	         1245.2133	         2736.1339	         3993.9265	                 0	                 0	        -4967.6461	                 0	        -3891.1636	     -0.0003888413	               0.2	         -22.54145	        -2.1792424	        0.46894135
	                 0	        0.20627469	    -1.3698323e-05	      -0.009184993	      -0.077853975	        -22.368364	        -2.1927413	      -0.048731074	         4.8500134	    -0.00029148081	         1.2547145	      -0.009184993	    -1.3698323e-05	    -1.8898379e-05	      -0.077853975	    -0.00017218247	         4.8504901	    -0.00024783471	        -21.677189	        -2.2466586	         1.2545994	            17.185	         17.197621	         1.2724868	         1.2724868	                 0	                 0	       0.063713831	                 0	        0.20502009	               -99	      -0.013363076	       0.015382717	                 0	       0.063713831	      -0.013363076	                 0	                 0	                 0	     0.00021916974	      0.0017434913	          3688.968	         3626.3723	         299.76069	         294.49754	     2.4144393e-06	     6.1061871e-06	         3989.1505	         3921.2859	         1.2814772	                 0	         2903.2035	         8350.0833	         11256.098	                 0	                 0	        -13438.133	                 0	        -11280.783	      -0.013363076	               0.4	        -22.368364	        -2.1927413	         1.2545994
	                 0	        0.53039583	    -0.00040689817	     -0.0063012913	       -0.07821193	        -22.045036	        -2.2178977	      -0.045504872	         3.1450265	      -0.029301663	         1.9699587	     -0.0063012913	    -0.00040689817	    -0.00064810334	       -0.07821193	      -0.005191259	         3.1451737	      -0.027014177	        -21.354061	         -2.271977	         1.9699752	         22.198949	         22.584824	         1.9774064	         1.9774064	                 0	                 0	       0.049379091	                 0	        0.52842586	               -99	       -0.31565342	        0.28242668	                 0	       0.049379091	       -0.31565342	                 0	                 0	                -0	        0.92297815	        0.70028845	         7070.0492	         5520.3376	         588.02948	          454.5484	     0.00019625142	    -9.5616242e-06	         7658.9633	         5975.5287	         4.9234579	     0.00017727473	         3492.4837	         14265.827	         17763.273	                 0	                 0	        -19984.408	                 0	        -17775.284	       -0.31565342	               0.6	        -22.045036	        -2.2178977	         1.9699752
	                 0	        0.99174343	    -0.00065352556	     -0.0058887053	      -0.079545331	        -21.584504	        -2.2539578	      -0.045199766	         3.7059955	      -0.031752709	         2.6385575	     -0.0058887053	    -0.00065352556	     -0.0014486351	      -0.079545331	     -0.0073299354	         3.7061174	      -0.031382757	        -20.894191	        -2.3088652	         2.6385245	         24.682068	          24.69614	         2.6497856	         2.6497856	                 0	                 0	       0.060782741	                 0	        0.98910491	               -99	       -0.52812488	       -0.10963861	                 0	       0.060782741	       -0.52812488	                 0	                -0	                 0	         3.4911644	         3.1739293	          8018.321	         7558.6641	         686.41903	         639.82215	    -1.2172141e-05	     0.00025603514	         8708.4913	         8202.1465	         11.854338	                 0	         3177.8471	         17760.373	         20950.427	                 0	                 0	        -24434.837	                 0	        -20955.907	       -0.52812488	               0.8	        -21.584504	        -2.2539578	         2.6385245
	                 0	         1.5890077	    -0.00077739884	     -0.0048436088	      -0.081630142	        -20.988637	        -2.3015409	      -0.043737819	         3.3036576	      -0.055508911	         3.3294992	     -0.0048436088	    -0.00077739884	     -0.0016794143	      -0.081630142	      -0.013137424	         3.3035694	      -0.054470085	        -20.298937	        -2.3578227	         3.3295558	         24.685456	         24.698314	         3.3415355	         3.3415355	                 0	                 0	       0.053431572	                 0	         1.5856781	               -99	       -0.69091162	      -0.083774684	                 0	       0.053431572	       -0.69091162	                 0	                -0	                -0	         7.8302866	         6.8267254	         8057.7624	         7272.6906	         717.96579	         635.98262	    -0.00015020104	     0.00025870297	         8783.6272	          7915.559	         23.840226	      1.883814e-10	         3182.2822	         17749.608	         20955.739	                 0	                 0	        -24872.956	                 0	        -20955.927	       -0.69091162	                 1	        -20.988637	        -2.3015409	         3.3295558
	                 0	         2.3231958	    -0.00093751028	     -0.0052732932	      -0.084815945	        -20.256171	        -2.3617743	      -0.044580442	         3.1251967	      -0.084424415	         4.0037867	     -0.0052732932	    -0.00093751028	     -0.0019298357	      -0.084815945	      -0.018606012	          3.124932	      -0.083345303	        -19.567401	         -2.420159	           4.00386	          24.68455	         24.697096	         4.0141748	         4.0141748	                 0	                 0	       0.047380243	                 0	          2.319192	               -99	       -0.83049141	       -0.12779322	                 0	       0.047380243	       -0.83049141	                 0	                -0	                -0	         13.642242	         12.084816	         7835.6839	         7076.6511	         721.90845	         639.12598	    -0.00030471846	     0.00044379756	         8571.1404	         7727.7595	         41.430193	     3.2592837e-12	         3195.2002	          17574.98	         20811.628	                 0	                 0	        -25277.817	                 0	        -20815.986	       -0.83049141	               1.2	        -20.256171	        -2.3617743	           4.00386
	                 0	         3.1918905	    -0.00091724492	     -0.0051740734	      -0.088875225	        -19.389997	        -2.4360643	      -0.044395437	         2.9476011	       -0.10294324	         4.6832992	     -0.0051740734	    -0.00091724492	     -0.0018768521	      -0.088875225	      -0.021546043	         2.9472145	       -0.10280802	        -18.702129	        -2.4971882	         4.6833656	         24.686642	         24.694328	         4.6940119	         4.6940119	                 0	                 0	       0.044691045	                 0	         3.1872071	               -99	       -0.84671969	        -0.1782822	                 0	       0.044691045	       -0.84671969	                 0	                 0	                 0	         16.376103	         15.141101	         7461.5094	         7008.7295	         708.99427	         656.67809	    -0.00043744621	     0.00059059882	         8186.8594	         7680.5055	         66.401094	                 0	         3221.9754	         17347.851	         20636.239	                 0	                 0	        -25564.214	                 0	        -20639.902	       -0.84671969	               1.4	        -19.389997	        -2.4360643	         4.6833656
	                 0	         4.1974255	    -0.00072475172	     -0.0052558202	      -0.093124971	        -18.387822	        -2.5263341	      -0.044658173	         3.8888912	       -0.09586634	         5.3669958	     -0.0052558202	    -0.00072475172	     -0.0014788471	      -0.093124971	      -0.020030303	         3.8893359	      -0.096717124	        -17.700919	        -2.5903505	         5.3670861	         24.689195	         24.690629	         5.3939675	         5.3939675	                 0	                 0	       0.065566463	                 0	         4.1920584	               -99	       -0.70235953	       -0.18767441	                 0	       0.065566463	       -0.70235953	                 0	                 0	                 0	         12.818085	         12.304367	         7086.5779	         6993.8184	         693.70808	         682.25532	    -0.00041468916	     0.00054045321	         7793.1928	         7688.4619	         99.805949	     1.0545901e-16	         3381.1907	         17228.302	         20709.315	                 0	                 0	        -28131.685	                 0	        -20708.686	       -0.70235953	               1.6	        -18.387822	        -2.5263341	         5.3670861
	                 0	         5.3398217	    -0.00034400873	     -0.0052825845	      -0.096473935	        -17.249789	        -2.6336803	      -0.044842798	          3.749689	      -0.052641717	         6.0524987	     -0.0052825845	    -0.00034400873	    -0.00082535143	      -0.096473935	      -0.012373965	         3.7500619	      -0.054812376	        -16.563798	        -2.7000004	         6.0525871	         24.691903	         24.685226	         6.0788431	         6.0788431	                 0	                 0	       0.060218773	                 0	         5.3337691	               -99	       -0.39507396	       -0.16704214	                 0	       0.060218773	       -0.39507396	                 0	                 0	                 0	         4.6452124	         4.4815946	         6673.9601	         7027.4277	         672.12082	         715.12157	    -0.00022320603	     0.00028703853	         7350.7375	         7747.1004	         143.23725	                 0	          3399.966	         17061.913	         20605.132	                 0	                 0	        -28685.241	                 0	        -20609.377	       -0.39507396	               1.8	        -17.249789	        -2.6336803	         6.0525871
	                 0	         6.6187041	     0.00019980471	     -0.0052731965	      -0.097588215	        -15.976247	        -2.7576563	      -0.045001869	         3.4489222	       0.044479508	         6.7338445	     -0.0052731965	     0.00019980471	    -4.8214012e-05	      -0.097588215	      0.0022719576	         3.4490171	       0.040804946	        -15.291017	        -2.8247751	         6.7339461	         24.694804	         24.679272	         6.7566303	         6.7566303	                 0	                 0	        0.05316213	                 0	         6.6119701	               -99	       0.047886751	       -0.11235002	                 0	        0.05316213	       0.047886751	                 0	                -0	                 0	       0.026409037	        0.10775787	         6265.4401	         7078.5723	         650.16255	         753.79403	    -9.6382958e-06	     2.6293334e-05	         6915.5591	         7832.5409	         197.29112	     1.3206491e-21	         3407.2901	         16924.801	         20529.389	                 0	                 0	        -28802.495	                 0	        -20533.524	       0.047886751	                 2	        -15.976247	        -2.7576563	         6.7339461
	                 0	         8.0326473	     0.00085026925	     -0.0052881354	      -0.095125034	        -14.568348	        -2.8953031	      -0.045208327	         3.0939878	        0.20391003	         7.4008993	     -0.0052881354	     0.00085026925	     0.00067930172	      -0.095125034	       0.023192013	         3.0937634	        0.19869547	        -13.883631	        -2.9607905	         7.4010074	           24.6988	         24.673489	         7.4219387	         7.4219387	                 0	                 0	       0.049393553	                 0	         8.0252463	               -99	        0.57052847	      -0.039793382	                 0	       0.049393553	        0.57052847	                 0	                -0	                -0	         10.080266	         13.509193	         5858.1413	         7106.2338	         631.15564	          793.6284	    -4.6117588e-05	     9.0027597e-05	          6499.383	         7913.4081	          262.0387	                 0	         3440.7597	          16788.88	           20491.7	                 0	                 0	        -28652.304	                 0	        -20492.124	        0.57052847	               2.2	        -14.568348	        -2.8953031	         7.4010074
	                 0	         9.5793972	      0.0016206182	     -0.0052839771	       -0.08788144	        -13.027778	        -3.0405951	      -0.045353011	         3.5394035	        0.43978411	         8.0576947	     -0.0052839771	      0.0016206182	      0.0012508272	       -0.08788144	        0.05047581	         3.5398338	        0.43312438	        -12.343272	        -3.1012046	         8.0578145	          24.70379	         24.666559	         8.0916569	         8.0916569	                 0	                 0	        0.05879716	                 0	         9.5713394	               -99	          1.162647	       0.052650734	                 0	        0.05879716	          1.162647	                 0	                -0	                -0	         46.485177	         63.504674	         5422.5182	         7189.0938	         608.52941	         846.60541	     0.00021177265	    -0.00022911727	         6077.5603	         8099.3313	         338.15231	     7.9753651e-27	         3559.9982	         16813.278	         20711.457	                 0	                 0	        -30867.931	                 0	        -20713.045	          1.162647	               2.4	        -13.027778	        -3.0405951	         8.0578145
	                 0	         11.255107	      0.0025028373	     -0.0052963569	      -0.073708716	        -11.357588	        -3.1840988	      -0.045498081	         2.8444297	        0.88485147	         8.6898846	     -0.0052963569	      0.0025028373	       0.001577067	      -0.073708716	       0.099468932	         2.8445101	        0.86047201	        -10.672935	        -3.2351144	         8.6900123	          24.70861	         24.655187	          8.689436	         8.7336019	                 0	                 0	       0.046401582	                 0	         11.246417	               -99	          1.799327	        0.15400496	                 0	       0.046401582	          1.799327	                 0	                -0	                -0	         118.75115	         168.62978	         5002.7166	         7236.1204	          586.2443	         899.42173	      0.0011206749	     -0.0013159354	          5707.652	         8304.3116	         424.31098	                 0	         3493.9643	          16833.35	         20751.644	                 0	                 0	        -29580.548	                 0	        -20752.061	          1.799327	               2.6	        -11.357588	        -3.1840988	         8.6900123
	                 0	         13.054012	      0.0035701421	     -0.0051218969	      -0.043173866	        -9.5625276	        -3.3107535	       -0.04544279	         3.0820306	         1.9302369	         9.2912587	     -0.0051218969	      0.0035701421	     0.00067996874	      -0.043173866	         0.2147133	         3.0840558	         1.9062415	        -8.8772142	        -3.3410007	         9.2913508	         24.712931	         24.195504	         9.2371881	         9.4046575	                 0	                 0	        0.05044693	                 0	         13.044721	               -99	         2.3913562	        0.21674553	                 0	        0.05044693	         2.3913562	                 0	                -0	                -0	         209.98947	         322.48607	         4686.5661	         7165.5398	         570.85945	         956.55346	      0.0021632327	     -0.0023796774	         5467.3291	         8444.8341	         518.96482	                 0	         3483.2324	         16969.657	         20971.899	                 0	                 0	        -31216.901	                 0	        -20976.117	         2.3913562	               2.8	        -9.5625276	        -3.3107535	         9.2913508
	                 0	         14.969815	      0.0046606816	     -0.0049683186	       0.014160218	         -7.647307	        -3.3826172	      -0.045373064	         2.5514704	         3.3880069	         9.8589027	     -0.0049683186	      0.0046606816	     -0.0021362294	       0.014160218	        0.35803938	         2.5565938	         3.3514879	        -6.9619234	        -3.3737192	         9.8589809	          24.72048	         23.290034	         9.7128761	         10.054843	                 0	                 0	       0.045522176	                 0	         14.959956	               -99	         2.8991664	        0.29979352	                 0	       0.045522176	         2.8991664	                 0	                -0	                -0	         305.21607	          518.5396	         4246.2976	         6812.7625	         537.99991	         997.55317	       0.003369425	     -0.0035974996	         5089.4712	         8329.0421	         620.35036	     3.4577139e-34	         3389.5645	         16691.289	         20701.235	                 0	                 0	        -29739.712	                 0	         -20697.14	         2.8991664	                 3	         -7.647307	        -3.3826172	         9.8589809
	                 0	         16.995667	      0.0057456552	     -0.0048685361	       0.099670917	        -5.6208942	        -3.3374138	      -0.045354797	         2.3476807	         4.9184766	         10.389668	     -0.0048685361	      0.0057456552	      -0.006137411	       0.099670917	        0.49436638	          2.357753	         4.8856557	        -4.9392697	        -3.2702134	         10.389859	         24.725666	          22.17323	         10.169497	         10.667293	                 0	                 0	       0.043648776	                 0	         16.985277	               -99	         3.3445957	        0.47335972	                 0	       0.043648776	         3.3445957	                 0	                -0	                -0	         420.85074	         762.35339	          3935.305	         6248.2797	         517.47935	         1012.0058	      0.0049367887	     -0.0041973367	         4873.5669	         8022.8483	         726.42889	                 0	         3304.6626	         16479.314	         20510.428	                 0	                 0	         -29235.18	                 0	        -20507.369	         3.3445957	               3.2	        -5.6208942	        -3.3374138	         10.389859
	                 0	         19.123859	      0.0062204046	     -0.0050809796	        0.20935765	        -3.5040807	        -3.1036898	      -0.045593817	         2.6999872	         6.0956776	         10.887905	     -0.0050809796	      0.0062204046	      -0.010804885	        0.20935765	        0.58471864	         2.7149325	         6.0945018	        -2.8344274	        -2.9624202	         10.888533	          24.71774	         21.257132	         10.648603	         11.225799	                 0	                 0	       0.050912462	                 0	         19.112971	               -99	         3.3801453	        0.79060281	                 0	       0.050912462	         3.3801453	                 0	                 0	                 0	         485.87578	          770.7986	         4183.1334	         5237.1429	         566.15407	         906.33007	      0.0081872557	     -0.0085624829	         5235.0298	         6914.0399	         835.30808	     6.4852468e-39	         3444.5294	         16142.891	         20422.776	                 0	                 0	        -30709.103	                 0	        -20426.728	         3.3801453	               3.4	        -3.5040807	        -3.1036898	         10.888533
	                 0	          21.35249	      0.0056223647	     -0.0057630937	        0.32371889	        -1.3277697	        -2.6161331	      -0.046824396	         2.6834324	         6.0840916	         11.399333	     -0.0057630937	      0.0056223647	      -0.013454064	        0.32371889	        0.54074568	         2.6958496	          6.102196	        -0.6792582	        -2.3994384	         11.400415	         24.714972	         21.210673	         11.173574	          11.70691	                 0	                 0	       0.047292182	                 0	          21.34109	               -99	         2.7638799	        0.57410026	                 0	       0.047292182	         2.7638799	                 0	                 0	                 0	         321.38885	         578.97844	         4097.9471	         4881.5278	         567.13412	         881.07063	      0.0046466194	      -0.006293966	         4986.5592	          6341.616	         956.74998	                 0	         3488.6238	         15572.184	         20017.578	                 0	                 0	         -30582.83	                 0	        -20021.713	         2.7638799	               3.6	        -1.3277697	        -2.6161331	         11.400415
	                 0	         23.678762	      0.0053805285	     -0.0050886201	         0.4272679	        0.87224182	        -1.8565554	      -0.046707253	         1.5332918	         6.0175597	          11.81538	     -0.0050886201	      0.0053805285	      -0.013889893	         0.4272679	         0.5204431	         1.5450699	          6.008197	         1.4945924	        -1.5740611	         11.816508	         24.700613	         21.350139	          11.51213	         12.093682	                 0	                 0	       0.014482323	                 0	         23.666945	               -99	          2.295696	        0.48959595	                 0	       0.014482323	          2.295696	                 0	                 0	                -0	         241.02674	         477.83664	         4476.8709	         4990.9792	         636.48475	         943.40262	      0.0027474794	     -0.0076261864	         5354.6063	         6412.7123	         1067.6887	     6.3306224e-44	         3125.9063	         16058.208	         20251.926	                 0	                 0	        -26442.996	                 0	        -20253.721	          2.295696	               3.8	        0.87224182	        -1.8565554	         11.816508
	                 0	         26.067244	      0.0049925977	     -0.0048386787	        0.53434755	         3.0395362	       -0.84966604	      -0.046974556	         1.0826899	         6.3262693	         12.048888	     -0.0048386787	      0.0049925977	      -0.016834063	        0.53434755	         0.5371333	         1.0950967	         6.3323867	         3.6279144	       -0.50227949	         12.050599	         24.695339	         21.527756	         11.687478	         12.329849	                 0	                 0	                 0	                 0	         26.055193	               -99	         1.7367878	        0.30398569	                 0	                 0	         1.7367878	                 0	                 0	                 0	         127.97507	         282.50482	         4563.8723	         4991.7981	          660.1361	         953.42137	      0.0008464148	     -0.0056077724	         5352.0732	         6227.7328	         1133.4794	                 0	          2993.785	         16086.065	         20213.343	                 0	                 0	        -24447.135	                 0	         -20214.52	         1.7367878	                 4	         3.0395362	       -0.84966604	         12.050599
	                 0	         28.498165	      0.0037524836	      -0.005059041	        0.63354842	          5.124043	        0.40325066	      -0.047526907	         1.1959537	         5.4368017	         12.260146	      -0.005059041	      0.0037524836	      -0.016273773	        0.63354842	        0.43066694	         1.2039479	         5.4715004	         5.6747929	        0.80722762	         12.261837	         24.684506	         22.201311	         11.962823	         12.478963	                 0	                 0	                 0	                 0	         28.485903	               -99	         1.0220763	        0.23551497	                 0	                 0	         1.0220763	                 0	                 0	                 0	         41.832007	         85.967719	         4830.7744	         4950.0766	         723.45482	         898.17382	     7.3611336e-05	     -0.0024295047	          5596.255	         5934.1558	         1193.4039	     1.9993497e-49	         3149.4405	         16022.675	         20365.586	                 0	                 0	         -25153.03	                 0	        -20368.373	         1.0220763	               4.2	          5.124043	        0.40325066	         12.261837
	                 0	         30.973492	      0.0030667294	      -0.005016143	        0.70555416	         7.1128467	         1.8780918	      -0.047620572	          1.208443	          4.042473	         12.490852	      -0.005016143	      0.0030667294	      -0.011673841	        0.70555416	        0.30724627	         1.2124996	         4.0567249	         7.6328913	         2.3205529	         12.491795	         24.686781	         22.954253	         12.273395	         12.635845	                 0	                 0	                 0	                 0	            30.961	               -99	        0.87577272	       0.057887283	                 0	                 0	        0.87577272	                 0	                 0	                -0	         33.295304	         70.303944	         4634.0143	         5376.2534	         707.78815	         960.83027	    -0.00041993027	     -0.0013005841	         5375.1528	         6407.3884	         1262.6881	      4.341351e-52	         3192.9759	         16115.327	         20570.996	                 0	                 0	        -25734.843	                 0	        -20572.364	        0.87577272	               4.4	         7.1128467	         1.8780918	         12.491795
	         6.3671485	         33.495259	      0.0031076571	     -0.0048649916	        0.76389189	         9.0272221	         3.5203702	      -0.047504143	         1.0895715	         3.6927238	          12.72135	     -0.0048649916	      0.0031076571	     -0.0097668444	        0.76389189	        0.28986175	         1.0930673	         3.6890688	         9.5204575	         3.9922386	         12.722057	         24.670574	         23.250897	         12.510457	         12.849947	       0.042447656	                 0	                 0	                 0	         33.482537	               -99	         1.0419973	       0.024604372	       0.042447656	                 0	         1.0419973	                 0	                -0	                -0	         55.084872	          109.9319	         4601.4787	         5512.6771	         717.23616	          996.8551	    -0.00044842325	     -0.0020860576	         5373.8803	         6619.6322	         1333.9319	         2713.5841	         3263.5251	         16333.039	         23644.088	                 0	                 0	        -28444.691	                 0	        -23643.999	         1.0419973	               4.6	         9.0272221	         3.5203702	         12.722057
	         16.110412	         36.058006	      0.0034013789	     -0.0044165874	        0.82504303	         10.871373	         5.3005697	      -0.047572702	        0.71997801	         4.1220184	         12.891257	     -0.0044165874	      0.0034013789	      -0.010587696	        0.82504303	        0.32703764	        0.72457651	         4.1110179	         11.334819	         5.8016068	         12.892031	         24.265773	         21.807985	         12.636763	         13.019983	        0.10740275	                 0	                 0	                 0	         36.045114	               -99	         1.1527332	       0.055945649	        0.10740275	                 0	         1.1527332	                 0	                -0	                -0	         78.300601	         174.00808	         4772.0625	         4925.4309	         772.30359	         1000.4736	    -0.00070798618	     -0.0041314775	         5622.6911	          6100.166	         1390.0289	         13270.508	         3301.9436	         16129.939	         34092.452	                 0	                 0	         -37238.66	                 0	        -34084.412	         1.1527332	               4.8	         10.871373	         5.3005697	         12.892031
	         20.338609	         38.648397	      0.0039229269	     -0.0041640276	        0.89613329	         12.620707	         7.2118317	      -0.047417156	        0.52282108	         4.8528634	         13.002873	     -0.0041640276	      0.0039229269	      -0.012651446	        0.89613329	        0.38487726	        0.52924014	         4.8397885	         13.047403	         7.7444298	          13.00395	         22.613139	         19.285317	         12.697212	         13.151793	        0.13559073	                 0	                 0	                 0	         38.635393	               -99	         1.1112857	        0.21140634	        0.13559073	                 0	         1.1112857	                 0	                -0	                 0	         80.720387	         252.58763	          4145.864	         3559.2827	         726.75911	         911.49709	    -0.00086594077	     -0.0056771609	         4953.2461	         4723.5092	         1427.6323	         17422.369	         3069.1079	         14197.743	         36116.865	                 0	                 0	        -38312.626	                 0	        -36107.044	         1.1112857	                 5	         12.620707	         7.2118317	          13.00395
	         25.484269	         41.258887	      0.0038635659	     -0.0044610385	         0.9763693	         14.241146	          9.259512	      -0.048102635	        0.56683272	         5.2138022	         13.100935	     -0.0044610385	      0.0038635659	      -0.015071283	         0.9763693	        0.40147346	        0.57352877	         5.2108792	         14.623661	         9.8244949	         13.102482	         20.853798	         16.945196	         12.773415	         13.247886	        0.16989513	                 0	                 0	                 0	         41.245785	               -99	        0.72701811	        -0.1162181	        0.16989513	                 0	        0.72701811	                 0	                 0	                -0	         32.561149	         171.03197	         3330.5087	          2376.625	         650.40177	         805.38282	     -0.0011668642	     -0.0018072239	         4013.4743	         3353.5163	         1458.3653	         19560.138	         2908.7827	           12048.6	         35975.927	                 0	                 0	        -38294.342	                 0	        -35965.536	        0.72701811	               5.2	         14.241146	          9.259512	         13.102482
	          29.06286	         43.888059	      0.0049013996	     -0.0045521749	         1.0647028	          15.70449	         11.444951	      -0.048386583	        0.33946345	         6.1827495	         13.180001	     -0.0045521749	      0.0049013996	       -0.01716996	         1.0647028	        0.48419736	        0.34954068	         6.1636876	         16.035762	         12.041317	         13.181977	         19.188392	          14.44083	         12.785753	         13.363575	         0.1937524	                 0	                 0	                 0	         43.874877	               -99	        0.50359632	        0.43151603	         0.1937524	                 0	        0.50359632	                 0	                -0	                 0	         8.7662524	         189.24812	         2554.8076	         646.44048	         569.75934	         718.71674	    -0.00053869877	       -0.32163998	         3133.1308	         1554.2135	         1485.9021	         21810.926	         2718.9212	         9542.3044	          35558.08	                 0	                 0	        -36763.625	                 0	        -35548.754	        0.50359632	               5.4	          15.70449	         11.444951	         13.181977
	         21.875241	         46.523251	      0.0053309618	     -0.0053810382	         1.1684792	          16.96913	         13.758288	      -0.049088379	      0.0019804732	         7.0827629	         13.153859	     -0.0053810382	      0.0053309618	      -0.019650174	         1.1684792	        0.54850491	       0.014696958	         7.0661049	         17.236834	         14.385631	         13.156473	          18.57925	         13.989503	         12.728098	         13.383647	        0.14583494	                 0	                 0	                 0	         46.510095	               -99	        0.50853909	         1.1006052	        0.14583494	                 0	        0.50853909	                 0	                 0	                 0	         6.2691378	           219.144	         1978.5917	         266.37983	         451.27031	          714.8667	    -0.00031947039	        0.55402239	         2435.9092	         1201.1289	         1473.7657	         18099.505	          2644.666	         8692.7061	         30910.761	                 0	                 0	         -30405.05	                 0	        -30910.904	        0.50853909	               5.6	          16.96913	         13.758288	         13.156473
	         20.470143	         49.154592	       0.006150539	     -0.0055468619	         1.2856326	         17.985264	         16.187174	      -0.049160799	        0.24120083	         7.9441754	         13.158955	     -0.0055468619	       0.006150539	      -0.023043888	         1.2856326	         0.6218733	        0.25768783	         7.9289609	         18.177893	         16.841445	         13.162439	         19.493515	         14.205976	          12.69006	         13.437345	        0.13646762	                 0	                 0	                 0	          49.14143	               -99	        0.58069517	         0.7975294	        0.13646762	                 0	        0.58069517	                 0	                -0	                -0	         7.3394843	         262.89272	         2134.4671	         397.95258	         447.10077	         735.81571	    -0.00037047117	         0.7155789	         2588.8814	         1397.5404	          1475.782	         16072.824	         2714.2167	         9284.7503	          29547.61	                 0	                 0	        -29979.724	                 0	        -29548.132	        0.58069517	               5.8	         17.985264	         16.187174	         13.162439
	         18.451739	         51.789154	      0.0067113877	     -0.0053389062	          1.416256	         18.712169	         18.721484	      -0.048761597	        0.34973778	         8.7295101	         13.180263	     -0.0053389062	      0.0067113877	      -0.027084007	          1.416256	        0.67981065	        0.36955518	         8.7200222	         18.817986	         19.395281	         13.185036	         20.529747	         14.374969	         12.673662	         13.494015	        0.12301159	                 0	                 0	                 0	         51.775969	               -99	        0.62708827	        0.69951497	        0.12301159	                 0	        0.62708827	                 0	                 0	                -0	         7.4746065	         301.91916	         2325.7005	         485.86572	         445.19284	         758.37328	    -0.00040243579	        0.84853151	         2778.3287	          1547.098	         1483.8627	         14835.273	         2790.7806	         9906.6128	         29016.542	                 0	                 0	        -29708.969	                 0	        -29017.527	        0.62708827	                 6	         18.712169	         18.721484	         13.185036
	         17.915709	         54.429446	      0.0070370414	     -0.0053303751	         1.5554325	         19.105839	         21.334609	      -0.048749948	        0.45338985	          9.188387	         13.214204	     -0.0053303751	      0.0070370414	      -0.029917609	         1.5554325	        0.70523429	        0.47466322	         9.1872614	         19.117178	         22.016538	         13.220018	         21.599484	          14.55958	         12.689269	         13.543927	        0.11943806	                 0	                 0	                 0	         54.416226	               -99	        0.64721215	        0.57947682	        0.11943806	                 0	        0.64721215	                 0	                -0	                -0	           7.33943	          315.0463	         2606.5649	         593.62014	         465.02033	          769.2617	    -0.00042020333	        0.72504448	         3078.9479	         1678.7091	         1495.7106	         14332.492	          2874.362	         10557.862	         29260.428	                 0	                 0	        -30235.603	                 0	        -29261.528	        0.64721215	               6.2	         19.105839	         21.334609	         13.220018
	         20.044597	         57.078093	      0.0068626597	     -0.0051255985	         1.6953461	         19.135464	         23.985436	      -0.048570781	        0.51837081	         9.1027925	         13.262256	     -0.0051255985	      0.0068626597	      -0.030703083	         1.6953461	        0.68529705	        0.53855331	         9.1128348	          19.05155	         24.662265	         13.268396	         22.233524	         14.551966	         12.743016	         13.576414	        0.13363065	                 0	                 0	                 0	         57.064825	               -99	        0.56779045	        0.52395077	        0.13363065	                 0	        0.56779045	                 0	                -0	                 0	         4.8767072	         247.07182	         2990.9264	         576.83636	           518.141	         758.49833	    -0.00034147789	        0.41453262	         3514.0341	         1582.8525	         1512.8221	         15565.311	         2923.3125	         10929.175	         30930.632	                 0	                 0	        -32138.571	                 0	        -30930.918	        0.56779045	               6.4	         19.135464	         23.985436	         13.268396
	         25.166031	         59.736643	      0.0060361855	      -0.004976445	         1.8255274	         18.795572	         26.624163	      -0.048614674	        0.29805437	         8.3402929	         13.305414	      -0.004976445	      0.0060361855	      -0.028295599	         1.8255274	        0.60610797	        0.31390934	         8.3638517	         18.624397	         27.284328	         13.310682	         21.898627	         14.221583	         12.826373	         13.564531	        0.16777354	                 0	                 0	                 0	         59.723332	               -99	        0.41905948	        0.79271957	        0.16777354	                 0	        0.41905948	                 0	                -0	                -0	         1.8375906	         147.82684	         3221.5159	         327.70664	         575.80091	         728.16255	    -0.00025000258	        0.27905134	         3799.3192	         1203.7213	          1527.776	         19016.509	         2880.3281	         10607.179	         34031.835	                 0	                 0	        -34332.643	                 0	        -34030.359	        0.41905948	               6.6	         18.795572	         26.624163	         13.310682
	         31.233918	         62.398657	      0.0046473381	     -0.0049564295	         1.9340359	          18.11527	         29.199022	      -0.048805611	      -0.038118209	         6.7177961	         13.298086	     -0.0049564295	      0.0046473381	      -0.021967722	         1.9340359	        0.47277329	      -0.028491544	         6.7502976	         17.873453	         29.836719	         13.301326	         20.441863	         13.972938	         12.899614	         13.473337	        0.20822612	                 0	                 0	                 0	         62.385356	               -99	        0.30273875	          1.019263	        0.20822612	                 0	        0.30273875	                 0	                -0	                -0	         0.7654364	         78.997756	         3027.8705	         198.11087	          618.5898	           683.365	    -0.00018224392	      -0.050313899	         3647.4695	         960.17393	         1524.6413	         22635.532	           2767.83	          9728.437	         36656.544	                 0	                 0	        -35738.155	                 0	        -36653.622	        0.30273875	               6.8	          18.11527	         29.199022	         13.301326
	         40.655901	         65.052684	      0.0027727431	     -0.0048099149	          2.012428	         17.163079	         31.676807	      -0.048900548	       -0.55483057	         4.5858438	          13.22235	     -0.0048099149	      0.0027727431	      -0.014261303	          2.012428	        0.30753573	       -0.55071209	           4.62387	         16.871813	         32.293602	         13.223788	         17.741407	         13.648401	         12.924513	         13.293184	        0.27103934	                 0	                 0	                 0	          65.03946	               -99	        0.19396606	         1.5698409	        0.27103934	                 0	        0.19396606	                 0	                -0	                -0	        0.16863219	          39.43524	         2346.1892	         90.551842	         622.10263	         644.99253	    -8.8405726e-05	       -0.28970655	         2968.8381	         774.36403	         1498.8998	         27750.705	         2583.5173	         8368.5748	         40201.857	                 0	                 0	        -37226.823	                 0	        -40195.113	        0.19396606	                 7	         17.163079	         31.676807	         13.223788
	         49.446553	         67.683046	     0.00052985087	     -0.0046563419	         2.0556003	         16.030896	         34.050921	      -0.049000962	       -0.98720556	          2.067742	         13.068677	     -0.0046563419	     0.00052985087	     -0.0060256589	         2.0556003	        0.12331365	       -0.98653416	         2.1078263	          15.71294	         34.654597	         13.069048	         13.758396	         13.285653	         12.886625	         13.033508	        0.32964368	                 0	                 0	                 0	         67.669977	               -99	       0.087174697	           2.14305	        0.32964368	                 0	       0.087174697	                 0	                -0	                -0	         0.2983299	          17.54239	         469.37226	         35.518533	         546.65402	          597.0615	      -0.031389466	       -0.40725493	          1016.741	         649.40796	         1447.5491	         30746.701	         2292.1677	         5939.3631	          40425.96	                 0	                 0	        -35734.438	                 0	        -40414.106	       0.087174697	               7.2	         16.030896	         34.050921	         13.069048
	         38.827783	         70.259693	    -0.00051355892	     -0.0053932155	         2.0650353	         14.828573	         36.329578	       -0.04940634	        -1.4916903	       -0.22232795	         12.694039	     -0.0053932155	    -0.00051355892	     -0.0021183338	         2.0650353	      -0.037014958	        -1.4918117	       -0.17994119	         14.504701	         36.930377	         12.694265	         12.899813	         12.905307	         12.620364	         12.582101	        0.25885188	                 0	                 0	                 0	         70.246999	               -99	       -0.10245594	       -0.71439354	        0.25885188	                 0	       -0.10245594	                 0	                -0	                 0	         23.017409	         1.1592405	         52.577497	         73.000817	         556.67515	         472.36563	       -0.20390158	       0.093047168	         632.44779	         546.41354	         1324.2022	         26777.345	         2166.4418	          5287.642	         35555.806	                 0	                 0	         -28824.66	                 0	        -35555.306	       -0.10245594	               7.4	         14.828573	         36.329578	         12.694265
	         30.807794	         72.777526	     -0.0024516673	      -0.005419439	         2.0361725	         13.639678	         38.548956	      -0.049316042	       -0.38274768	        -2.8215116	         12.520754	      -0.005419439	     -0.0024516673	      0.0037585116	         2.0361725	       -0.25514897	       -0.37998794	        -2.7734021	         13.332962	         39.158879	         12.521004	         12.983239	         12.981715	          12.58125	         12.293465	        0.20538529	                 0	                 0	                 0	         72.765005	               -99	       -0.31100624	        -1.2747647	        0.20538529	                 0	       -0.31100624	                 0	                -0	                 0	         80.495129	         12.382039	         128.89189	         263.51668	         598.87962	         384.29855	       0.039890005	        0.27575018	         808.58531	         660.26833	         1270.8151	         20493.981	         2182.7594	         5602.4259	         29550.157	                 0	                 0	        -27887.804	                 0	        -29548.627	       -0.31100624	               7.6	         13.639678	         38.548956	         12.521004
	         31.860101	         75.275672	     -0.0041524258	     -0.0055269769	         1.9635832	          12.53144	         40.788382	      -0.049240244	       -0.34364393	        -5.3450406	         12.458554	     -0.0055269769	     -0.0041524258	       0.011078323	         1.9635832	       -0.46045212	       -0.33465442	        -5.3083101	         12.269554	         41.418901	         12.459442	         13.098271	         13.762403	         12.631424	         12.091383	        0.21240067	                 0	                 0	                 0	         75.263213	               -99	       -0.49635363	        -1.3971085	        0.21240067	                 0	       -0.49635363	                 0	                -0	                 0	         165.79907	         16.130509	          159.8787	         637.57653	         650.53913	         352.76963	         0.4968604	        0.12149895	         976.79531	         1006.4495	         1251.6083	         20157.375	         2275.3651	         6373.7584	         30058.199	                 0	                 0	        -28426.688	                 0	        -30058.201	       -0.49635363	               7.8	          12.53144	         40.788382	         12.459442
	         28.726003	         77.758279	     -0.0051413158	     -0.0055951949	         1.8570074	         11.598422	         43.090147	      -0.049133155	       -0.36706893	         -7.024706	         12.362241	     -0.0055951949	     -0.0051413158	       0.017344038	         1.8570074	       -0.59166305	       -0.35213009	        -7.0047552	         11.404972	         43.744998	         12.364153	         13.110121	         14.921395	         12.612167	         11.903951	        0.19150669	                 0	                 0	                 0	         77.745915	               -99	       -0.59351306	        -1.3110819	        0.19150669	                 0	       -0.59351306	                 0	                 0	                 0	         214.76497	         11.417022	          176.6881	         1067.7564	         673.34909	         351.89599	        0.82641238	     -0.0010019681	         1065.7099	         1430.9904	         1223.0772	         19949.616	         2389.1831	         7188.7104	         30750.626	                 0	                 0	        -28756.429	                 0	        -30751.632	       -0.59351306	                 8	         11.598422	         43.090147	         12.364153
	         26.878479	         80.223507	      -0.005695816	     -0.0055008527	         1.7318861	         10.920344	         45.461884	      -0.048867993	       -0.12245815	        -7.7943497	         12.292815	     -0.0055008527	      -0.005695816	       0.021337228	         1.7318861	       -0.64686319	       -0.10456458	         -7.790209	         10.810064	         46.135835	          12.29561	         13.141753	         16.453976	         12.580132	         11.800108	        0.17918986	                 0	                 0	                 0	         80.211211	               -99	       -0.60066345	       -0.95550935	        0.17918986	                 0	       -0.60066345	                 0	                 0	                -0	         196.75232	         6.1501342	         233.28085	         1552.3997	         671.01808	         385.39509	        0.77942926	    -0.00017202011	          1101.922	         1943.9708	         1203.0828	         18584.438	         2465.7382	         7948.1034	         30201.371	                 0	                 0	        -29054.566	                 0	        -30203.074	       -0.60066345	               8.2	         10.920344	         45.461884	          12.29561
	         6.9215347	         82.679045	     -0.0056525344	     -0.0054113085	          1.603018	          10.54311	         47.890007	      -0.048655502	        0.53583087	        -7.7013841	          12.27661	     -0.0054113085	     -0.0056525344	       0.022728961	          1.603018	       -0.63098663	        0.55314868	        -7.7119295	         10.520378	         48.572574	         12.279789	         13.319024	         17.969846	         12.575986	         11.815294	       0.046143565	                 0	                 0	                 0	         82.666766	               -99	       -0.54297059	       -0.18085778	       0.046143565	                 0	       -0.54297059	                 0	                 0	                 0	         133.94706	         2.8993443	         398.91862	         1912.3314	          634.5765	         406.49191	        0.49384382	    -0.00021444284	         1167.7921	         2321.6412	         1198.3957	         11861.598	         2561.0042	         8464.0178	         24085.034	                 0	                 0	        -25718.901	                 0	         -24087.63	       -0.54297059	               8.4	          10.54311	         47.890007	         12.279789
	                 0	          85.15061	     -0.0051192352	     -0.0063373738	         1.4863466	         10.478648	         50.362439	      -0.049532525	         1.0987459	        -6.7561532	         12.449285	     -0.0063373738	     -0.0051192352	       0.020883342	         1.4863466	       -0.52362333	         1.1101317	         -6.780941	         10.535574	         51.042666	         12.452121	         16.207234	         22.483996	         12.720652	         12.093992	                 0	                 0	                 0	                 0	         85.138158	               -99	       -0.81857302	        0.54742507	                 0	                 0	       -0.81857302	                 0	                -0	                 0	         163.41276	         14.690278	         2084.5761	         2694.8705	         697.49255	         431.10376	     -0.0029257955	    -0.00037681341	         2945.4564	         3140.7603	         1245.7119	                 0	         3048.1636	         11029.475	         15323.389	                 0	                 0	        -19569.374	                 0	        -15339.002	       -0.81857302	               8.6	         10.478648	         50.362439	         12.452121
	                 0	         87.660592	     -0.0046200626	     -0.0055204776	         1.3912373	         10.702622	         52.863323	      -0.048330176	         1.1530477	        -5.6757587	         12.649728	     -0.0055204776	     -0.0046200626	       0.016693698	         1.3912373	       -0.43594245	         1.1614362	         -5.689741	          10.82392	          53.53501	         12.651493	         18.948176	         24.698252	         12.870002	         12.350332	                 0	                 0	                 0	                 0	          87.64794	               -99	        -1.0535176	       -0.33084497	                 0	                 0	        -1.0535176	                 0	                -0	                 0	          195.2177	          41.52747	         3364.1411	         4170.7499	         835.58654	         631.49396	     -0.0014057421	    -0.00031658607	         4394.9694	         4843.9389	          1311.504	                 0	         2959.4133	         13888.165	         18159.347	                 0	                 0	        -22942.365	                 0	        -18163.303	        -1.0535176	               8.8	         10.702622	         52.863323	         12.651493
	       0.045217806	         90.212875	       -0.00372313	      -0.005116038	         1.3109201	         11.170568	         55.373092	      -0.047773584	         1.1676093	        -4.8103492	         12.870075	      -0.005116038	       -0.00372313	       0.014146635	         1.3109201	       -0.36378324	         1.1734223	        -4.8289964	         11.345453	         56.032706	         12.871483	         20.952944	         24.683592	         13.045973	         12.613391	     0.00030145204	                 0	                 0	                 0	         90.200004	               -99	       -0.93576376	       -0.31287617	     0.00030145204	                 0	       -0.93576376	                 0	                 0	                 0	         116.48452	         40.787216	         4122.1301	         4540.3516	         863.47402	         711.10802	     -0.0024210296	     -0.0001813413	         5101.9371	         5292.3784	         1379.8987	         329.27025	         3141.3618	         14989.708	         19840.299	                 0	                 0	        -24874.063	                 0	        -19844.375	       -0.93576376	                 9	         11.170568	         55.373092	         12.871483
	                 0	          92.81501	     -0.0025555987	     -0.0056225198	         1.2503211	         11.850307	          57.88556	      -0.048521944	         1.6207422	        -3.3417186	         13.160632	     -0.0056225198	     -0.0025555987	       0.010440563	         1.2503211	       -0.23485114	         1.6229815	        -3.3731175	         12.064854	         58.532958	         13.161522	          22.66713	         24.675404	         13.265669	         13.014752	                 0	                 0	      0.0098785668	                 0	         92.801848	               -99	       -0.64086269	       -0.34200866	                 0	      0.0098785668	       -0.64086269	                 0	                 0	                -0	         45.493559	         23.778469	         4478.3388	         4737.8951	         837.32011	         769.37429	     -0.0015261658	    -3.7768655e-05	         5361.0492	         5531.2328	         1473.9856	       0.077356058	          3457.378	         15438.462	         20369.982	                 0	                 0	        -27775.302	                 0	        -20374.593	       -0.64086269	               9.2	         11.850307	          57.88556	         13.161522
	                 0	         95.479071	    -0.00062589882	       -0.00543867	         1.2189158	         12.695844	         60.412221	      -0.048536166	           1.47806	        -1.3287119	         13.473075	       -0.00543867	    -0.00062589882	      0.0052690359	         1.2189158	      -0.074468909	         1.4783419	        -1.3672242	         12.930777	         61.052205	         13.473461	         24.441284	         24.651172	         13.485543	          13.40911	                 0	                 0	      0.0062417892	                 0	         95.465598	               -99	       0.010901353	       -0.40613272	                 0	      0.0062417892	       0.010901353	                 0	                 0	                -0	       0.012041715	         0.3063276	          4608.456	         5350.4993	          785.4641	         919.21114	    -7.6201913e-05	    -5.0790831e-06	         5393.7926	         6270.3956	         1581.6546	                 0	         3619.3791	         16166.175	         21367.379	                 0	                 0	        -28412.766	                 0	        -21371.599	       0.010901353	               9.4	         12.695844	         60.412221	         13.473461
